{
  "type": "FeatureCollection",
  "features": [
    {
      "type": "Feature",
      "properties": {
        "NAME": "Harrisonburg, VA",
        "COUNTRY": "USA",
        "TYPE": "City"
      },
      "geometry": {
        "type": "Point",
        "coordinates": [
          -78.86810302734375,
          38.44390909175746
        ]
      }
    },
    {
      "type": "Feature",
      "properties": {
        "NAME": "Franklin, WV",
        "COUNTRY": "USA",
        "TYPE": "City"
      },
      "geometry": {
        "type": "Point",
        "coordinates": [
          -79.32815551757812,
          38.64315421306983
        ]
      }
    },
    {
      "type": "Feature",
      "properties": {
        "NAME": "Broadway, VA",
        "COUNTRY": "USA",
        "TYPE": "Town"
      },
      "geometry": {
        "type": "Point",
        "coordinates": [
          -78.79600524902344,
          38.61418790695693
        ]
      }
    },
    {
      "type": "Feature",
      "properties": {
        "NAME": "Luray, VA",
        "COUNTRY": "USA",
        "TYPE": "Town"
      },
      "geometry": {
        "type": "Point",
        "coordinates": [
          -78.453369140625,
          38.666211605156704
        ]
      }
    },
    {
      "type": "Feature",
      "properties": {
        "NAME": "Front Royal, VA",
        "COUNTRY": "USA",
        "TYPE": "City"
      },
      "geometry": {
        "type": "Point",
        "coordinates": [
          -78.189697265625,
          38.91561302513129
        ]
      }
    },
    {
      "type": "Feature",
      "properties": {
        "NAME": "Monterey, VA",
        "COUNTRY": "USA",
        "TYPE": "Town"
      },
      "geometry": {
        "type": "Point",
        "coordinates": [
          -79.573974609375,
          38.41271038284709
        ]
      }
    },
    {
      "type": "Feature",
      "properties": {
        "NAME": "McDowell, VA",
        "COUNTRY": "USA",
        "TYPE": "Town"
      },
      "geometry": {
        "type": "Point",
        "coordinates": [
          -79.49037551879883,
          38.334923959718616
        ]
      }
    },
    {
      "type": "Feature",
      "properties": {
        "NAME": "Staunton, VA",
        "COUNTRY": "USA",
        "TYPE": "City"
      },
      "geometry": {
        "type": "Point",
        "coordinates": [
          -79.06997680664062,
          38.14967752360809
        ]
      }
    },
    {
      "type": "Feature",
      "properties": {
        "NAME": "Waynesboro, VA",
        "COUNTRY": "USA",
        "TYPE": "City"
      },
      "geometry": {
        "type": "Point",
        "coordinates": [
          -78.87702941894531,
          38.06647354576796
        ]
      }
    },
    {
      "type": "Feature",
      "properties": {
        "NAME": "Charlottesville, VA",
        "COUNTRY": "USA",
        "TYPE": "City"
      },
      "geometry": {
        "type": "Point",
        "coordinates": [
          -78.486328125,
          38.027540481011
        ]
      }
    },
    {
      "type": "Feature",
      "properties": {
        "NAME": "Orange, VA",
        "COUNTRY": "USA",
        "TYPE": "Town"
      },
      "geometry": {
        "type": "Point",
        "coordinates": [
          -78.10455322265625,
          38.24680876017446
        ]
      }
    },
    {
      "type": "Feature",
      "properties": {
        "NAME": "Madison, VA",
        "COUNTRY": "USA",
        "TYPE": "Town"
      },
      "geometry": {
        "type": "Point",
        "coordinates": [
          -78.25698852539062,
          38.38418943358851
        ]
      }
    },
    {
      "type": "Feature",
      "properties": {
        "NAME": "Shenandoah National Park, VA",
        "COUNTRY": "USA",
        "TYPE": "National Park"
      },
      "geometry": {
        "type": "Point",
        "coordinates": [
          -78.45474243164062,
          38.47509432050245
        ]
      }
    },
    {
      "type": "Feature",
      "properties": {
        "NAME": "Fredericksburg, VA",
        "COUNTRY": "USA",
        "TYPE": "City"
      },
      "geometry": {
        "type": "Point",
        "coordinates": [
          -77.46116638183594,
          38.306102934215616
        ]
      }
    },
    {
      "type": "Feature",
      "properties": {
        "NAME": "Washington DC, District of Columbia",
        "COUNTRY": "USA",
        "TYPE": "City"
      },
      "geometry": {
        "type": "Point",
        "coordinates": [
          -77.02789306640625,
          38.89530825492018
        ]
      }
    },
    {
      "type": "Feature",
      "properties": {
        "NAME": "College Park, MD",
        "COUNTRY": "USA",
        "TYPE": "City"
      },
      "geometry": {
        "type": "Point",
        "coordinates": [
          -76.92901611328125,
          38.98076276501633
        ]
      }
    },
    {
      "type": "Feature",
      "properties": {
        "NAME": "Fairfax, VA",
        "COUNTRY": "USA",
        "TYPE": "City"
      },
      "geometry": {
        "type": "Point",
        "coordinates": [
          -77.3052978515625,
          38.84826438869913
        ]
      }
    },
    {
      "type": "Feature",
      "properties": {
        "NAME": "Middleburg, VA",
        "COUNTRY": "USA",
        "TYPE": "City"
      },
      "geometry": {
        "type": "Point",
        "coordinates": [
          -77.73513793945312,
          38.971154274048345
        ]
      }
    },
    {
      "type": "Feature",
      "properties": {
        "NAME": "Winchester, VA",
        "COUNTRY": "USA",
        "TYPE": "City"
      },
      "geometry": {
        "type": "Point",
        "coordinates": [
          -78.16635131835938,
          39.18862643257856
        ]
      }
    },
    {
      "type": "Feature",
      "properties": {
        "NAME": "George Washington National Forest, VA",
        "COUNTRY": "USA",
        "TYPE": "National Forest"
      },
      "geometry": {
        "type": "Point",
        "coordinates": [
          -79.03701782226562,
          38.710160941206645
        ]
      }
    },
    {
      "type": "Feature",
      "properties": {
        "NAME": "Falls Church, VA",
        "COUNTRY": "USA",
        "TYPE": "City"
      },
      "geometry": {
        "type": "Point",
        "coordinates": [
          -77.16934204101562,
          38.886757140695906
        ]
      }
    },
    {
      "type": "Feature",
      "properties": {
        "NAME": "Reston, VA",
        "COUNTRY": "USA",
        "TYPE": "City"
      },
      "geometry": {
        "type": "Point",
        "coordinates": [
          -77.35954284667969,
          38.96047664397741
        ]
      }
    },
    {
      "type": "Feature",
      "properties": {
        "NAME": "Salisbury, MD",
        "COUNTRY": "USA",
        "TYPE": "City"
      },
      "geometry": {
        "type": "Point",
        "coordinates": [
          -75.6024169921875,
          38.371808917147554
        ]
      }
    },
    {
      "type": "Feature",
      "properties": {
        "NAME": "Assateague Island National Seashore, VA",
        "COUNTRY": "USA",
        "TYPE": "National Park"
      },
      "geometry": {
        "type": "Point",
        "coordinates": [
          -75.28656005859375,
          37.974514992024616
        ]
      }
    },
    {
      "type": "Feature",
      "properties": {
        "NAME": "Chincoteague, VA",
        "COUNTRY": "USA",
        "TYPE": "Town"
      },
      "geometry": {
        "type": "Point",
        "coordinates": [
          -75.37582397460938,
          37.938782346134396
        ]
      }
    },
    {
      "type": "Feature",
      "properties": {
        "NAME": "Tangier, VA",
        "COUNTRY": "USA",
        "TYPE": "Town"
      },
      "geometry": {
        "type": "Point",
        "coordinates": [
          -75.99037170410156,
          37.82849729680382
        ]
      }
    },
    {
      "type": "Feature",
      "properties": {
        "NAME": "Tylerton, VA",
        "COUNTRY": "USA",
        "TYPE": "Town"
      },
      "geometry": {
        "type": "Point",
        "coordinates": [
          -76.02298736572266,
          37.96747811844137
        ]
      }
    },
    {
      "type": "Feature",
      "properties": {
        "NAME": "Harpers Ferry, VA",
        "COUNTRY": "USA",
        "TYPE": "Town"
      },
      "geometry": {
        "type": "Point",
        "coordinates": [
          -77.73239135742188,
          39.32633057389337
        ]
      }
    },
    {
      "type": "Feature",
      "properties": {
        "NAME": "Brunswick, MD",
        "COUNTRY": "USA",
        "TYPE": "Town"
      },
      "geometry": {
        "type": "Point",
        "coordinates": [
          -77.62802124023438,
          39.31517545076218
        ]
      }
    },
    {
      "type": "Feature",
      "properties": {
        "NAME": "Berkeley Springs, WV",
        "COUNTRY": "USA",
        "TYPE": "Town"
      },
      "geometry": {
        "type": "Point",
        "coordinates": [
          -78.2281494140625,
          39.63953756436671
        ]
      }
    }
  ]
}