{
  "type": "FeatureCollection",
  "features": [
    {
      "type": "Feature",
      "properties": {
        "NAME": "Harrisonburg, VA",
        "COUNTRY": "USA",
        "TYPE": "City"
      },
      "geometry": {
        "type": "Point",
        "coordinates": [
          -78.86810302734375,
          38.44390909175746
        ]
      }
    },
    {
      "type": "Feature",
      "properties": {
        "NAME": "Franklin, WV",
        "COUNTRY": "USA",
        "TYPE": "City"
      },
      "geometry": {
        "type": "Point",
        "coordinates": [
          -79.32815551757812,
          38.64315421306983
        ]
      }
    },
    {
      "type": "Feature",
      "properties": {
        "NAME": "Broadway, VA",
        "COUNTRY": "USA",
        "TYPE": "Town"
      },
      "geometry": {
        "type": "Point",
        "coordinates": [
          -78.79600524902344,
          38.61418790695693
        ]
      }
    },
    {
      "type": "Feature",
      "properties": {
        "NAME": "Luray, VA",
        "COUNTRY": "USA",
        "TYPE": "Town"
      },
      "geometry": {
        "type": "Point",
        "coordinates": [
          -78.453369140625,
          38.666211605156704
        ]
      }
    },
    {
      "type": "Feature",
      "properties": {
        "NAME": "Front Royal, VA",
        "COUNTRY": "USA",
        "TYPE": "City"
      },
      "geometry": {
        "type": "Point",
        "coordinates": [
          -78.189697265625,
          38.91561302513129
        ]
      }
    },
    {
      "type": "Feature",
      "properties": {
        "NAME": "Monterey, VA",
        "COUNTRY": "USA",
        "TYPE": "Town"
      },
      "geometry": {
        "type": "Point",
        "coordinates": [
          -79.573974609375,
          38.41271038284709
        ]
      }
    },
    {
      "type": "Feature",
      "properties": {
        "NAME": "McDowell, VA",
        "COUNTRY": "USA",
        "TYPE": "Town"
      },
      "geometry": {
        "type": "Point",
        "coordinates": [
          -79.49037551879883,
          38.334923959718616
        ]
      }
    },
    {
      "type": "Feature",
      "properties": {
        "NAME": "Staunton, VA",
        "COUNTRY": "USA",
        "TYPE": "City"
      },
      "geometry": {
        "type": "Point",
        "coordinates": [
          -79.06997680664062,
          38.14967752360809
        ]
      }
    },
    {
      "type": "Feature",
      "properties": {
        "NAME": "Waynesboro, VA",
        "COUNTRY": "USA",
        "TYPE": "City"
      },
      "geometry": {
        "type": "Point",
        "coordinates": [
          -78.87702941894531,
          38.06647354576796
        ]
      }
    },
    {
      "type": "Feature",
      "properties": {
        "NAME": "Charlottesville, VA",
        "COUNTRY": "USA",
        "TYPE": "City"
      },
      "geometry": {
        "type": "Point",
        "coordinates": [
          -78.486328125,
          38.027540481011
        ]
      }
    },
    {
      "type": "Feature",
      "properties": {
        "NAME": "Orange, VA",
        "COUNTRY": "USA",
        "TYPE": "Town"
      },
      "geometry": {
        "type": "Point",
        "coordinates": [
          -78.10455322265625,
          38.24680876017446
        ]
      }
    },
    {
      "type": "Feature",
      "properties": {
        "NAME": "Madison, VA",
        "COUNTRY": "USA",
        "TYPE": "Town"
      },
      "geometry": {
        "type": "Point",
        "coordinates": [
          -78.25698852539062,
          38.38418943358851
        ]
      }
    },
    {
      "type": "Feature",
      "properties": {
        "NAME": "Shenandoah National Park, VA",
        "COUNTRY": "USA",
        "TYPE": "National Park"
      },
      "geometry": {
        "type": "Point",
        "coordinates": [
          -78.45474243164062,
          38.47509432050245
        ]
      }
    },
    {
      "type": "Feature",
      "properties": {
        "NAME": "Fredericksburg, VA",
        "COUNTRY": "USA",
        "TYPE": "City"
      },
      "geometry": {
        "type": "Point",
        "coordinates": [
          -77.46116638183594,
          38.306102934215616
        ]
      }
    },
    {
      "type": "Feature",
      "properties": {
        "NAME": "Washington DC, District of Columbia",
        "COUNTRY": "USA",
        "TYPE": "City"
      },
      "geometry": {
        "type": "Point",
        "coordinates": [
          -77.02789306640625,
          38.89530825492018
        ]
      }
    },
    {
      "type": "Feature",
      "properties": {
        "NAME": "College Park, MD",
        "COUNTRY": "USA",
        "TYPE": "City"
      },
      "geometry": {
        "type": "Point",
        "coordinates": [
          -76.92901611328125,
          38.98076276501633
        ]
      }
    },
    {
      "type": "Feature",
      "properties": {
        "NAME": "Fairfax, VA",
        "COUNTRY": "USA",
        "TYPE": "City"
      },
      "geometry": {
        "type": "Point",
        "coordinates": [
          -77.3052978515625,
          38.84826438869913
        ]
      }
    },
    {
      "type": "Feature",
      "properties": {
        "NAME": "Middleburg, VA",
        "COUNTRY": "USA",
        "TYPE": "City"
      },
      "geometry": {
        "type": "Point",
        "coordinates": [
          -77.73513793945312,
          38.971154274048345
        ]
      }
    },
    {
      "type": "Feature",
      "properties": {
        "NAME": "Winchester, VA",
        "COUNTRY": "USA",
        "TYPE": "City"
      },
      "geometry": {
        "type": "Point",
        "coordinates": [
          -78.16635131835938,
          39.18862643257856
        ]
      }
    },
    {
      "type": "Feature",
      "properties": {
        "NAME": "George Washington National Forest, VA",
        "COUNTRY": "USA",
        "TYPE": "National Forest"
      },
      "geometry": {
        "type": "Point",
        "coordinates": [
          -79.03701782226562,
          38.710160941206645
        ]
      }
    },
    {
      "type": "Feature",
      "properties": {
        "NAME": "Falls Church, VA",
        "COUNTRY": "USA",
        "TYPE": "City"
      },
      "geometry": {
        "type": "Point",
        "coordinates": [
          -77.16934204101562,
          38.886757140695906
        ]
      }
    },
    {
      "type": "Feature",
      "properties": {
        "NAME": "Reston, VA",
        "COUNTRY": "USA",
        "TYPE": "City"
      },
      "geometry": {
        "type": "Point",
        "coordinates": [
          -77.35954284667969,
          38.96047664397741
        ]
      }
    },
    {
      "type": "Feature",
      "properties": {
        "NAME": "Salisbury, MD",
        "COUNTRY": "USA",
        "TYPE": "City"
      },
      "geometry": {
        "type": "Point",
        "coordinates": [
          -75.6024169921875,
          38.371808917147554
        ]
      }
    },
    {
      "type": "Feature",
      "properties": {
        "NAME": "Assateague Island National Seashore, VA",
        "COUNTRY": "USA",
        "TYPE": "National Park"
      },
      "geometry": {
        "type": "Point",
        "coordinates": [
          -75.28656005859375,
          37.974514992024616
        ]
      }
    },
    {
      "type": "Feature",
      "properties": {
        "NAME": "Chincoteague, VA",
        "COUNTRY": "USA",
        "TYPE": "Town"
      },
      "geometry": {
        "type": "Point",
        "coordinates": [
          -75.37582397460938,
          37.938782346134396
        ]
      }
    },
    {
      "type": "Feature",
      "properties": {
        "NAME": "Tangier, VA",
        "COUNTRY": "USA",
        "TYPE": "Town"
      },
      "geometry": {
        "type": "Point",
        "coordinates": [
          -75.99037170410156,
          37.82849729680382
        ]
      }
    },
    {
      "type": "Feature",
      "properties": {
        "NAME": "Tylerton, VA",
        "COUNTRY": "USA",
        "TYPE": "Town"
      },
      "geometry": {
        "type": "Point",
        "coordinates": [
          -76.02298736572266,
          37.96747811844137
        ]
      }
    },
    {
      "type": "Feature",
      "properties": {
        "NAME": "Harpers Ferry, VA",
        "COUNTRY": "USA",
        "TYPE": "Town"
      },
      "geometry": {
        "type": "Point",
        "coordinates": [
          -77.73239135742188,
          39.32633057389337
        ]
      }
    },
    {
      "type": "Feature",
      "properties": {
        "NAME": "Brunswick, MD",
        "COUNTRY": "USA",
        "TYPE": "Town"
      },
      "geometry": {
        "type": "Point",
        "coordinates": [
          -77.62802124023438,
          39.31517545076218
        ]
      }
    },
    {
      "type": "Feature",
      "properties": {
        "NAME": "Berkeley Springs, WV",
        "COUNTRY": "USA",
        "TYPE": "Town"
      },
      "geometry": {
        "type": "Point",
        "coordinates": [
          -78.2281494140625,
          39.63953756436671
        ]
      }
    },
    {
      "type": "Feature",
      "properties": {
        "NAME": "Churchville, VA",
        "COUNTRY": "USA",
        "TYPE": "Town"
      },
      "geometry": {
        "type": "Point",
        "coordinates": [
          -79.1616439819336,
          38.227123177685996
        ]
      }
    },
    {
      "type": "Feature",
      "properties": {
        "NAME": "Massanutten Mountain, VA",
        "COUNTRY": "USA",
        "TYPE": "Natural Feature"
      },
      "geometry": {
        "type": "Point",
        "coordinates": [
          -78.77008438110352,
          38.39293526031571
        ]
      }
    },
    {
      "type": "Feature",
      "properties": {
        "NAME": "Dolly Sods Wilderness Area",
        "COUNTRY": "USA",
        "TYPE": "Wilderness Area"
      },
      "geometry": {
        "type": "Point",
        "coordinates": [
          -79.35596466064453,
          39.01971716735042
        ]
      }
    },
    {
      "type": "Feature",
      "properties": {
        "NAME": "Harman, WV",
        "COUNTRY": "USA",
        "TYPE": "Town"
      },
      "geometry": {
        "type": "Point",
        "coordinates": [
          -79.52384948730469,
          38.92416066460569
        ]
      }
    },
    {
      "type": "Feature",
      "properties": {
        "NAME": "Spruce Knob, WV",
        "COUNTRY": "USA",
        "TYPE": "Natural Feature"
      },
      "geometry": {
        "type": "Point",
        "coordinates": [
          -79.52642440795898,
          38.70761583218457
        ]
      }
    },
    {
      "type": "Feature",
      "properties": {
        "NAME": "Seneca Rocks, WV",
        "COUNTRY": "USA",
        "TYPE": "Natural Feature"
      },
      "geometry": {
        "type": "Point",
        "coordinates": [
          -79.36707973480225,
          38.83465997069901
        ]
      }
    },
    {
      "type": "Feature",
      "properties": {
        "NAME": "Whitegrass Ski Area, WV",
        "COUNTRY": "USA",
        "TYPE": "Natural Feature"
      },
      "geometry": {
        "type": "Point",
        "coordinates": [
          -79.42248344421387,
          39.01898363535647
        ]
      }
    },
    {
      "type": "Feature",
      "properties": {
        "NAME": "Davis, WV",
        "COUNTRY": "USA",
        "TYPE": "Town"
      },
      "geometry": {
        "type": "Point",
        "coordinates": [
          -79.46514129638672,
          39.129793920878676
        ]
      }
    },
    {
      "type": "Feature",
      "properties": {
        "NAME": "Blackwater Falls State Park, WV",
        "COUNTRY": "USA",
        "TYPE": "Natural Feature"
      },
      "geometry": {
        "type": "Point",
        "coordinates": [
          -79.53380584716795,
          39.10408918216985
        ]
      }
    },
    {
      "type": "Feature",
      "properties": {
        "NAME": "Thomas, WV",
        "COUNTRY": "USA",
        "TYPE": "Town"
      },
      "geometry": {
        "type": "Point",
        "coordinates": [
          -79.49878692626953,
          39.14949897356036
        ]
      }
    },
    {
      "type": "Feature",
      "properties": {
        "NAME": "Cumberland, MD",
        "COUNTRY": "USA",
        "TYPE": "City"
      },
      "geometry": {
        "type": "Point",
        "coordinates": [
          -78.76167297363281,
          39.65434146406167
        ]
      }
    },
    {
      "type": "Feature",
      "properties": {
        "NAME": "Keyser, WV",
        "COUNTRY": "USA",
        "TYPE": "Town"
      },
      "geometry": {
        "type": "Point",
        "coordinates": [
          -78.97418975830078,
          39.44176112227503
        ]
      }
    },
    {
      "type": "Feature",
      "properties": {
        "NAME": "Highland Retreat of the Mennonite Church, VA",
        "COUNTRY": "USA",
        "TYPE": "Natural Feature"
      },
      "geometry": {
        "type": "Point",
        "coordinates": [
          -78.89685630798338,
          38.77312351348149
        ]
      }
    },
    {
      "type": "Feature",
      "properties": {
        "NAME": "Blacksburg, VA",
        "COUNTRY": "USA",
        "TYPE": "Town"
      },
      "geometry": {
        "type": "Point",
        "coordinates": [
          -80.41786193847656,
          37.231421807404715
        ]
      }
    },
    {
      "type": "Feature",
      "properties": {
        "NAME": "Christiansburg, VA",
        "COUNTRY": "USA",
        "TYPE": "City"
      },
      "geometry": {
        "type": "Point",
        "coordinates": [
          -80.40069580078125,
          37.13842453422676
        ]
      }
    },
    {
      "type": "Feature",
      "properties": {
        "NAME": "Jefferson National Forest, VA",
        "COUNTRY": "USA",
        "TYPE": "National Forest"
      },
      "geometry": {
        "type": "Point",
        "coordinates": [
          -80.54351806640625,
          37.36360851770406
        ]
      }
    },
    {
      "type": "Feature",
      "properties": {
        "NAME": "Burkes Garden, VA",
        "COUNTRY": "USA",
        "TYPE": "Town"
      },
      "geometry": {
        "type": "Point",
        "coordinates": [
          -81.3372802734375,
          37.09462150015557
        ]
      }
    },
    {
      "type": "Feature",
      "properties": {
        "NAME": "Catawba, VA",
        "COUNTRY": "USA",
        "TYPE": "Town"
      },
      "geometry": {
        "type": "Point",
        "coordinates": [
          -80.11024475097656,
          37.38216158779349
        ]
      }
    },
    {
      "type": "Feature",
      "properties": {
        "NAME": "Pembroke, VA",
        "COUNTRY": "USA",
        "TYPE": "Town"
      },
      "geometry": {
        "type": "Point",
        "coordinates": [
          -80.63621520996094,
          37.32102825630305
        ]
      }
    },
    {
      "type": "Feature",
      "properties": {
        "NAME": "Pearisburg, VA",
        "COUNTRY": "USA",
        "TYPE": "Town"
      },
      "geometry": {
        "type": "Point",
        "coordinates": [
          -80.73234558105469,
          37.32703462722375
        ]
      }
    },
    {
      "type": "Feature",
      "properties": {
        "NAME": "Claytor Lake State Park, VA",
        "COUNTRY": "USA",
        "TYPE": "Natural Feature"
      },
      "geometry": {
        "type": "Point",
        "coordinates": [
          -80.6121826171875,
          37.05791696358488
        ]
      }
    },
    {
      "type": "Feature",
      "properties": {
        "NAME": "McAfee's Knob, VA",
        "COUNTRY": "USA",
        "TYPE": "Natural Feature"
      },
      "geometry": {
        "type": "Point",
        "coordinates": [
          -80.0357437133789,
          37.39252748113648
        ]
      }
    },
    {
      "type": "Feature",
      "properties": {
        "NAME": "Salem, VA",
        "COUNTRY": "USA",
        "TYPE": "City"
      },
      "geometry": {
        "type": "Point",
        "coordinates": [
          -80.05393981933594,
          37.29590550406618
        ]
      }
    },
    {
      "type": "Feature",
      "properties": {
        "NAME": "Roanoke, VA",
        "COUNTRY": "USA",
        "TYPE": "City"
      },
      "geometry": {
        "type": "Point",
        "coordinates": [
          -79.93377685546875,
          37.28497995025375
        ]
      }
    },
    {
      "type": "Feature",
      "properties": {
        "NAME": "Richmond, VA",
        "COUNTRY": "USA",
        "TYPE": "City"
      },
      "geometry": {
        "type": "Point",
        "coordinates": [
          -77.43026733398438,
          37.54076623355796
        ]
      }
    },
    {
      "type": "Feature",
      "properties": {
        "NAME": "Williamsburg, VA",
        "COUNTRY": "USA",
        "TYPE": "City"
      },
      "geometry": {
        "type": "Point",
        "coordinates": [
          -76.69830322265625,
          37.274052809979054
        ]
      }
    },
    {
      "type": "Feature",
      "properties": {
        "NAME": "Cape Charles, VA",
        "COUNTRY": "USA",
        "TYPE": "Town"
      },
      "geometry": {
        "type": "Point",
        "coordinates": [
          -76.00341796875,
          37.260938147754516
        ]
      }
    },
    {
      "type": "Feature",
      "properties": {
        "NAME": "Newport News, VA",
        "COUNTRY": "USA",
        "TYPE": "City"
      },
      "geometry": {
        "type": "Point",
        "coordinates": [
          -76.42776489257812,
          36.9800665440453
        ]
      }
    },
    {
      "type": "Feature",
      "properties": {
        "NAME": "Norfolk, VA",
        "COUNTRY": "USA",
        "TYPE": "City"
      },
      "geometry": {
        "type": "Point",
        "coordinates": [
          -76.27361297607422,
          36.86231738103478
        ]
      }
    },
    {
      "type": "Feature",
      "properties": {
        "NAME": "Virginia Beach, VA",
        "COUNTRY": "USA",
        "TYPE": "City"
      },
      "geometry": {
        "type": "Point",
        "coordinates": [
          -75.98693847656249,
          36.81808022778526
        ]
      }
    },
    {
      "type": "Feature",
      "properties": {
        "NAME": "Surry, VA",
        "COUNTRY": "USA",
        "TYPE": "Town"
      },
      "geometry": {
        "type": "Point",
        "coordinates": [
          -76.8332290649414,
          37.13924559906393
        ]
      }
    },
    {
      "type": "Feature",
      "properties": {
        "NAME": "Lynchburg, VA",
        "COUNTRY": "USA",
        "TYPE": "City"
      },
      "geometry": {
        "type": "Point",
        "coordinates": [
          -79.1400146484375,
          37.413800350662875
        ]
      }
    },
    {
      "type": "Feature",
      "properties": {
        "NAME": "Buena Vista, VA",
        "COUNTRY": "USA",
        "TYPE": "Town"
      },
      "geometry": {
        "type": "Point",
        "coordinates": [
          -79.3487548828125,
          37.735969208590504
        ]
      }
    },
    {
      "type": "Feature",
      "properties": {
        "NAME": "Glasgow, VA",
        "COUNTRY": "USA",
        "TYPE": "Town"
      },
      "geometry": {
        "type": "Point",
        "coordinates": [
          -79.43389892578125,
          37.63380988687157
        ]
      }
    },
    {
      "type": "Feature",
      "properties": {
        "NAME": "Covington, VA",
        "COUNTRY": "USA",
        "TYPE": "City"
      },
      "geometry": {
        "type": "Point",
        "coordinates": [
          -79.991455078125,
          37.794592824285104
        ]
      }
    },
    {
      "type": "Feature",
      "properties": {
        "NAME": "Clifton Forge, VA",
        "COUNTRY": "USA",
        "TYPE": "Town"
      },
      "geometry": {
        "type": "Point",
        "coordinates": [
          -79.81842041015625,
          37.820632846207864
        ]
      }
    },
    {
      "type": "Feature",
      "properties": {
        "NAME": "Smith Mountain Lake, VA",
        "COUNTRY": "USA",
        "TYPE": "Natural Feature"
      },
      "geometry": {
        "type": "Point",
        "coordinates": [
          -79.595947265625,
          37.046408899699564
        ]
      }
    },
    {
      "type": "Feature",
      "properties": {
        "NAME": "Bluefield, VA",
        "COUNTRY": "USA",
        "TYPE": "Town"
      },
      "geometry": {
        "type": "Point",
        "coordinates": [
          -81.22467041015625,
          37.26968150969715
        ]
      }
    },
    {
      "type": "Feature",
      "properties": {
        "NAME": "Radford, VA",
        "COUNTRY": "USA",
        "TYPE": "City"
      },
      "geometry": {
        "type": "Point",
        "coordinates": [
          -80.57373046875,
          37.132950540920135
        ]
      }
    },
    {
      "type": "Feature",
      "properties": {
        "NAME": "Charleston, WV",
        "COUNTRY": "USA",
        "TYPE": "City"
      },
      "geometry": {
        "type": "Point",
        "coordinates": [
          -81.63940429687499,
          38.35888785866677
        ]
      }
    },
    {
      "type": "Feature",
      "properties": {
        "NAME": "Floyd, VA",
        "COUNTRY": "USA",
        "TYPE": "Town"
      },
      "geometry": {
        "type": "Point",
        "coordinates": [
          -80.31898498535156,
          36.9092741551487
        ]
      }
    },
    {
      "type": "Feature",
      "properties": {
        "NAME": "Marion, VA",
        "COUNTRY": "USA",
        "TYPE": "Town"
      },
      "geometry": {
        "type": "Point",
        "coordinates": [
          -81.51512145996094,
          36.835118682834256
        ]
      }
    },
    {
      "type": "Feature",
      "properties": {
        "NAME": "Sugar Grove, VA",
        "COUNTRY": "USA",
        "TYPE": "Town"
      },
      "geometry": {
        "type": "Point",
        "coordinates": [
          -81.41195297241211,
          36.77587998851891
        ]
      }
    },
    {
      "type": "Feature",
      "properties": {
        "NAME": "Ivanhoe, VA",
        "COUNTRY": "USA",
        "TYPE": "Town"
      },
      "geometry": {
        "type": "Point",
        "coordinates": [
          -80.96700668334961,
          36.84033938530768
        ]
      }
    },
    {
      "type": "Feature",
      "properties": {
        "NAME": "Troutdale, VA",
        "COUNTRY": "USA",
        "TYPE": "Town"
      },
      "geometry": {
        "type": "Point",
        "coordinates": [
          -81.44027709960938,
          36.70200805115167
        ]
      }
    },
    {
      "type": "Feature",
      "properties": {
        "NAME": "Mt. Rogers, VA",
        "COUNTRY": "USA",
        "TYPE": "Natural Feature"
      },
      "geometry": {
        "type": "Point",
        "coordinates": [
          -81.54481887817383,
          36.6597439325592
        ]
      }
    },
    {
      "type": "Feature",
      "properties": {
        "NAME": "Damascus, VA",
        "COUNTRY": "USA",
        "TYPE": "Town"
      },
      "geometry": {
        "type": "Point",
        "coordinates": [
          -81.78394317626953,
          36.63481511975864
        ]
      }
    },
    {
      "type": "Feature",
      "properties": {
        "NAME": "Wytheville, VA",
        "COUNTRY": "USA",
        "TYPE": "Town"
      },
      "geometry": {
        "type": "Point",
        "coordinates": [
          -81.08390808105469,
          36.95098926024788
        ]
      }
    },
    {
      "type": "Feature",
      "properties": {
        "NAME": "Bristol, VA",
        "COUNTRY": "USA",
        "TYPE": "City"
      },
      "geometry": {
        "type": "Point",
        "coordinates": [
          -82.17361450195312,
          36.598991657383294
        ]
      }
    },
    {
      "type": "Feature",
      "properties": {
        "NAME": "Jonesville, VA",
        "COUNTRY": "USA",
        "TYPE": "Town"
      },
      "geometry": {
        "type": "Point",
        "coordinates": [
          -83.10813903808594,
          36.69044623523481
        ]
      }
    },
    {
      "type": "Feature",
      "properties": {
        "NAME": "Pennington Gap, VA",
        "COUNTRY": "USA",
        "TYPE": "Town"
      },
      "geometry": {
        "type": "Point",
        "coordinates": [
          -83.02505493164062,
          36.76116629868542
        ]
      }
    },
    {
      "type": "Feature",
      "properties": {
        "NAME": "Pocahontas, WV",
        "COUNTRY": "USA",
        "TYPE": "Town"
      },
      "geometry": {
        "type": "Point",
        "coordinates": [
          -81.33848190307617,
          37.30505443455426
        ]
      }
    },
    {
      "type": "Feature",
      "properties": {
        "NAME": "Stuarts Draft, VA",
        "COUNTRY": "USA",
        "TYPE": "Town"
      },
      "geometry": {
        "type": "Point",
        "coordinates": [
          -79.03289794921875,
          38.03078569382294
        ]
      }
    },
    {
      "type": "Feature",
      "properties": {
        "NAME": "Elkton, VA",
        "COUNTRY": "USA",
        "TYPE": "Town"
      },
      "geometry": {
        "type": "Point",
        "coordinates": [
          -78.62125396728516,
          38.40840605494758
        ]
      }
    },
    {
      "type": "Feature",
      "properties": {
        "NAME": "Dayton, VA",
        "COUNTRY": "USA",
        "TYPE": "Town"
      },
      "geometry": {
        "type": "Point",
        "coordinates": [
          -78.93814086914062,
          38.417014454352035
        ]
      }
    },
    {
      "type": "Feature",
      "properties": {
        "NAME": "Bridgewater, VA",
        "COUNTRY": "USA",
        "TYPE": "Town"
      },
      "geometry": {
        "type": "Point",
        "coordinates": [
          -78.97590637207031,
          38.38244014132493
        ]
      }
    },
    {
      "type": "Feature",
      "properties": {
        "NAME": "Middletown, VA",
        "COUNTRY": "USA",
        "TYPE": "Town"
      },
      "geometry": {
        "type": "Point",
        "coordinates": [
          -78.27140808105467,
          39.02558514933794
        ]
      }
    },
    {
      "type": "Feature",
      "properties": {
        "NAME": "Woodstock, VA",
        "COUNTRY": "USA",
        "TYPE": "Town"
      },
      "geometry": {
        "type": "Point",
        "coordinates": [
          -78.50555419921875,
          38.88355020746342
        ]
      }
    },
    {
      "type": "Feature",
      "properties": {
        "NAME": "Mount Jackson, VA",
        "COUNTRY": "USA",
        "TYPE": "Town"
      },
      "geometry": {
        "type": "Point",
        "coordinates": [
          -78.64151000976562,
          38.74685401687219
        ]
      }
    },
    {
      "type": "Feature",
      "properties": {
        "NAME": "Philadelphia, PA",
        "COUNTRY": "USA",
        "TYPE": "City"
      },
      "geometry": {
        "type": "Point",
        "coordinates": [
          -75.1519775390625,
          39.95922773254976
        ]
      }
    },
    {
      "type": "Feature",
      "properties": {
        "NAME": "Lancaster, PA",
        "COUNTRY": "USA",
        "TYPE": "City"
      },
      "geometry": {
        "type": "Point",
        "coordinates": [
          -76.30142211914062,
          40.047591462658794
        ]
      }
    },
    {
      "type": "Feature",
      "properties": {
        "NAME": "Reading, PA",
        "COUNTRY": "USA",
        "TYPE": "City"
      },
      "geometry": {
        "type": "Point",
        "coordinates": [
          -75.92239379882812,
          40.34131069983192
        ]
      }
    },
    {
      "type": "Feature",
      "properties": {
        "NAME": "Ephrata, PA",
        "COUNTRY": "USA",
        "TYPE": "Town"
      },
      "geometry": {
        "type": "Point",
        "coordinates": [
          -76.17919921875,
          40.17992254722979
        ]
      }
    },
    {
      "type": "Feature",
      "properties": {
        "NAME": "Souderton, PA",
        "COUNTRY": "USA",
        "TYPE": "Town"
      },
      "geometry": {
        "type": "Point",
        "coordinates": [
          -75.32415390014648,
          40.312388728625066
        ]
      }
    },
    {
      "type": "Feature",
      "properties": {
        "NAME": "New York, NY",
        "COUNTRY": "USA",
        "TYPE": "City"
      },
      "geometry": {
        "type": "Point",
        "coordinates": [
          -73.99566650390625,
          40.72644570551446
        ]
      }
    },
    {
      "type": "Feature",
      "properties": {
        "NAME": "Port Jervis, NY",
        "COUNTRY": "USA",
        "TYPE": "Town"
      },
      "geometry": {
        "type": "Point",
        "coordinates": [
          -74.69261169433592,
          41.379384735449385
        ]
      }
    },
    {
      "type": "Feature",
      "properties": {
        "NAME": "Wilkes-Barre, PA",
        "COUNTRY": "USA",
        "TYPE": "City"
      },
      "geometry": {
        "type": "Point",
        "coordinates": [
          -75.88119506835938,
          41.24657932865876
        ]
      }
    },
    {
      "type": "Feature",
      "properties": {
        "NAME": "Scranton, PA",
        "COUNTRY": "USA",
        "TYPE": "City"
      },
      "geometry": {
        "type": "Point",
        "coordinates": [
          -75.6573486328125,
          41.410805789669816
        ]
      }
    },
    {
      "type": "Feature",
      "properties": {
        "NAME": "Harrisburg, PA",
        "COUNTRY": "USA",
        "TYPE": "City"
      },
      "geometry": {
        "type": "Point",
        "coordinates": [
          -76.87408447265625,
          40.26066474660849
        ]
      }
    },
    {
      "type": "Feature",
      "properties": {
        "NAME": "Chambersburg, VA",
        "COUNTRY": "USA",
        "TYPE": "Town"
      },
      "geometry": {
        "type": "Point",
        "coordinates": [
          -77.6458740234375,
          39.94975340768179
        ]
      }
    },
    {
      "type": "Feature",
      "properties": {
        "NAME": "State College, PA",
        "COUNTRY": "USA",
        "TYPE": "Town"
      },
      "geometry": {
        "type": "Point",
        "coordinates": [
          -77.85873413085938,
          40.79717741518769
        ]
      }
    }
  ]
}